{"MRData": {"CircuitTable": {"Circuit": [{"CircuitName": "Aut\u00f3dromo do Estoril", "Location": {"Locality": "Estoril", "Country": "Portugal", "lat": "38.7506", "long": "-9.39417"}, "circuitId": "estoril", "url": "http://en.wikipedia.org/wiki/Aut%C3%B3dromo_do_Estoril"}, {"CircuitName": "Fuji Speedway", "Location": {"Locality": "Oyama", "Country": "Japan", "lat": "35.3717", "long": "138.927"}, "circuitId": "fuji", "url": "http://en.wikipedia.org/wiki/Fuji_Speedway"}, {"CircuitName": "Aut\u00f3dromo Juan y Oscar G\u00e1lvez", "Location": {"Locality": "Buenos Aires", "Country": "Argentina", "lat": "-34.6943", "long": "-58.4593"}, "circuitId": "galvez", "url": "http://en.wikipedia.org/wiki/Aut%C3%B3dromo_Oscar_Alfredo_G%C3%A1lvez"}, {"CircuitName": "Prince George Circuit", "Location": {"Locality": "Eastern Cape Province", "Country": "South Africa", "lat": "-33.0486", "long": "27.8736"}, "circuitId": "george", "url": "http://en.wikipedia.org/wiki/Prince_George_Circuit"}, {"CircuitName": "Hockenheimring", "Location": {"Locality": "Hockenheim", "Country": "Germany", "lat": "49.3278", "long": "8.56583"}, "circuitId": "hockenheimring", "url": "http://en.wikipedia.org/wiki/Hockenheimring"}, {"CircuitName": "Hungaroring", "Location": {"Locality": "Budapest", "Country": "Hungary", "lat": "47.5789", "long": "19.2486"}, "circuitId": "hungaroring", "url": "http://en.wikipedia.org/wiki/Hungaroring"}, {"CircuitName": "Autodromo Enzo e Dino Ferrari", "Location": {"Locality": "Imola", "Country": "Italy", "lat": "44.3439", "long": "11.7167"}, "circuitId": "imola", "url": "http://en.wikipedia.org/wiki/Autodromo_Enzo_e_Dino_Ferrari"}, {"CircuitName": "Indianapolis Motor Speedway", "Location": {"Locality": "Indianapolis", "Country": "USA", "lat": "39.795", "long": "-86.2347"}, "circuitId": "indianapolis", "url": "http://en.wikipedia.org/wiki/Indianapolis_Motor_Speedway"}, {"CircuitName": "Aut\u00f3dromo Jos\u00e9 Carlos Pace", "Location": {"Locality": "S\u00e3o Paulo", "Country": "Brazil", "lat": "-23.7036", "long": "-46.6997"}, "circuitId": "interlagos", "url": "http://en.wikipedia.org/wiki/Aut%C3%B3dromo_Jos%C3%A9_Carlos_Pace"}, {"CircuitName": "Istanbul Park", "Location": {"Locality": "Istanbul", "Country": "Turkey", "lat": "40.9517", "long": "29.405"}, "circuitId": "istanbul", "url": "http://en.wikipedia.org/wiki/Istanbul_Park"}, {"CircuitName": "Aut\u00f3dromo Internacional Nelson Piquet", "Location": {"Locality": "Rio de Janeiro", "Country": "Brazil", "lat": "-22.9756", "long": "-43.395"}, "circuitId": "jacarepagua", "url": "http://en.wikipedia.org/wiki/Aut%C3%B3dromo_Internacional_Nelson_Piquet"}, {"CircuitName": "Jarama", "Location": {"Locality": "Madrid", "Country": "Spain", "lat": "40.6171", "long": "-3.58558"}, "circuitId": "jarama", "url": "http://en.wikipedia.org/wiki/Circuito_Permanente_Del_Jarama"}, {"CircuitName": "Jeddah Corniche Circuit", "Location": {"Locality": "Jeddah", "Country": "Saudi Arabia", "lat": "21.6319", "long": "39.1044"}, "circuitId": "jeddah", "url": "http://en.wikipedia.org/wiki/Jeddah_Street_Circuit"}, {"CircuitName": "Circuito de Jerez", "Location": {"Locality": "Jerez de la Frontera", "Country": "Spain", "lat": "36.7083", "long": "-6.03417"}, "circuitId": "jerez", "url": "http://en.wikipedia.org/wiki/Circuito_Permanente_de_Jerez"}, {"CircuitName": "Kyalami", "Location": {"Locality": "Midrand", "Country": "South Africa", "lat": "-25.9894", "long": "28.0767"}, "circuitId": "kyalami", "url": "http://en.wikipedia.org/wiki/Kyalami"}, {"CircuitName": "Las Vegas Street Circuit", "Location": {"Locality": "Nevada", "Country": "USA", "lat": "36.1162", "long": "-115.174"}, "circuitId": "las_vegas", "url": "http://en.wikipedia.org/wiki/Las_Vegas_Street_Circuit"}, {"CircuitName": "Le Mans", "Location": {"Locality": "Le Mans", "Country": "France", "lat": "47.95", "long": "0.224231"}, "circuitId": "lemans", "url": "http://en.wikipedia.org/wiki/Circuit_de_la_Sarthe#Bugatti_Circuit"}, {"CircuitName": "Long Beach", "Location": {"Locality": "California", "Country": "USA", "lat": "33.7651", "long": "-118.189"}, "circuitId": "long_beach", "url": "http://en.wikipedia.org/wiki/Long_Beach,_California"}, {"CircuitName": "Losail International Circuit", "Location": {"Locality": "Al Daayen", "Country": "Qatar", "lat": "25.49", "long": "51.4542"}, "circuitId": "losail", "url": "http://en.wikipedia.org/wiki/Losail_International_Circuit"}, {"CircuitName": "Circuit de Nevers Magny-Cours", "Location": {"Locality": "Magny Cours", "Country": "France", "lat": "46.8642", "long": "3.16361"}, "circuitId": "magny_cours", "url": "http://en.wikipedia.org/wiki/Circuit_de_Nevers_Magny-Cours"}, {"CircuitName": "Marina Bay Street Circuit", "Location": {"Locality": "Marina Bay", "Country": "Singapore", "lat": "1.2914", "long": "103.864"}, "circuitId": "marina_bay", "url": "http://en.wikipedia.org/wiki/Marina_Bay_Street_Circuit"}, {"CircuitName": "Miami International Autodrome", "Location": {"Locality": "Miami", "Country": "USA", "lat": "25.9581", "long": "-80.2389"}, "circuitId": "miami", "url": "http://en.wikipedia.org/wiki/Miami_International_Autodrome"}, {"CircuitName": "Circuit de Monaco", "Location": {"Locality": "Monte-Carlo", "Country": "Monaco", "lat": "43.7347", "long": "7.42056"}, "circuitId": "monaco", "url": "http://en.wikipedia.org/wiki/Circuit_de_Monaco"}, {"CircuitName": "Monsanto Park Circuit", "Location": {"Locality": "Lisbon", "Country": "Portugal", "lat": "38.7197", "long": "-9.20306"}, "circuitId": "monsanto", "url": "http://en.wikipedia.org/wiki/Monsanto_Park_Circuit"}, {"CircuitName": "Montju\u00efc", "Location": {"Locality": "Barcelona", "Country": "Spain", "lat": "41.3664", "long": "2.15167"}, "circuitId": "montjuic", "url": "http://en.wikipedia.org/wiki/Montju%C3%AFc_circuit"}, {"CircuitName": "Autodromo Nazionale di Monza", "Location": {"Locality": "Monza", "Country": "Italy", "lat": "45.6156", "long": "9.28111"}, "circuitId": "monza", "url": "http://en.wikipedia.org/wiki/Autodromo_Nazionale_Monza"}, {"CircuitName": "Mosport International Raceway", "Location": {"Locality": "Ontario", "Country": "Canada", "lat": "44.0481", "long": "-78.6756"}, "circuitId": "mosport", "url": "http://en.wikipedia.org/wiki/Mosport"}, {"CircuitName": "Autodromo Internazionale del Mugello", "Location": {"Locality": "Mugello", "Country": "Italy", "lat": "43.9975", "long": "11.3719"}, "circuitId": "mugello", "url": "http://en.wikipedia.org/wiki/Mugello_Circuit"}, {"CircuitName": "Nivelles-Baulers", "Location": {"Locality": "Brussels", "Country": "Belgium", "lat": "50.6211", "long": "4.32694"}, "circuitId": "nivelles", "url": "http://en.wikipedia.org/wiki/Nivelles-Baulers"}, {"CircuitName": "N\u00fcrburgring", "Location": {"Locality": "N\u00fcrburg", "Country": "Germany", "lat": "50.3356", "long": "6.9475"}, "circuitId": "nurburgring", "url": "http://en.wikipedia.org/wiki/N%C3%BCrburgring"}, {"CircuitName": "Okayama International Circuit", "Location": {"Locality": "Okayama", "Country": "Japan", "lat": "34.915", "long": "134.221"}, "circuitId": "okayama", "url": "http://en.wikipedia.org/wiki/TI_Circuit"}, {"CircuitName": "Circuit de Pedralbes", "Location": {"Locality": "Barcelona", "Country": "Spain", "lat": "41.3903", "long": "2.11667"}, "circuitId": "pedralbes", "url": "http://en.wikipedia.org/wiki/Pedralbes_Circuit"}, {"CircuitName": "Pescara Circuit", "Location": {"Locality": "Pescara", "Country": "Italy", "lat": "42.475", "long": "14.1508"}, "circuitId": "pescara", "url": "http://en.wikipedia.org/wiki/Pescara_Circuit"}, {"CircuitName": "Phoenix street circuit", "Location": {"Locality": "Phoenix", "Country": "USA", "lat": "33.4479", "long": "-112.075"}, "circuitId": "phoenix", "url": "http://en.wikipedia.org/wiki/Phoenix_street_circuit"}, {"CircuitName": "Aut\u00f3dromo Internacional do Algarve", "Location": {"Locality": "Portim\u00e3o", "Country": "Portugal", "lat": "37.227", "long": "-8.6267"}, "circuitId": "portimao", "url": "http://en.wikipedia.org/wiki/Algarve_International_Circuit"}, {"CircuitName": "Red Bull Ring", "Location": {"Locality": "Spielberg", "Country": "Austria", "lat": "47.2197", "long": "14.7647"}, "circuitId": "red_bull_ring", "url": "http://en.wikipedia.org/wiki/Red_Bull_Ring"}, {"CircuitName": "Reims-Gueux", "Location": {"Locality": "Reims", "Country": "France", "lat": "49.2542", "long": "3.93083"}, "circuitId": "reims", "url": "http://en.wikipedia.org/wiki/Reims-Gueux"}, {"CircuitName": "Circuit Paul Ricard", "Location": {"Locality": "Le Castellet", "Country": "France", "lat": "43.2506", "long": "5.79167"}, "circuitId": "ricard", "url": "http://en.wikipedia.org/wiki/Paul_Ricard_Circuit"}, {"CircuitName": "Riverside International Raceway", "Location": {"Locality": "California", "Country": "USA", "lat": "33.937", "long": "-117.273"}, "circuitId": "riverside", "url": "http://en.wikipedia.org/wiki/Riverside_International_Raceway"}, {"CircuitName": "Aut\u00f3dromo Hermanos Rodr\u00edguez", "Location": {"Locality": "Mexico City", "Country": "Mexico", "lat": "19.4042", "long": "-99.0907"}, "circuitId": "rodriguez", "url": "http://en.wikipedia.org/wiki/Aut%C3%B3dromo_Hermanos_Rodr%C3%ADguez"}, {"CircuitName": "Sebring International Raceway", "Location": {"Locality": "Florida", "Country": "USA", "lat": "27.4547", "long": "-81.3483"}, "circuitId": "sebring", "url": "http://en.wikipedia.org/wiki/Sebring_Raceway"}, {"CircuitName": "Sepang International Circuit", "Location": {"Locality": "Kuala Lumpur", "Country": "Malaysia", "lat": "2.76083", "long": "101.738"}, "circuitId": "sepang", "url": "http://en.wikipedia.org/wiki/Sepang_International_Circuit"}, {"CircuitName": "Shanghai International Circuit", "Location": {"Locality": "Shanghai", "Country": "China", "lat": "31.3389", "long": "121.22"}, "circuitId": "shanghai", "url": "http://en.wikipedia.org/wiki/Shanghai_International_Circuit"}, {"CircuitName": "Silverstone Circuit", "Location": {"Locality": "Silverstone", "Country": "UK", "lat": "52.0786", "long": "-1.01694"}, "circuitId": "silverstone", "url": "http://en.wikipedia.org/wiki/Silverstone_Circuit"}, {"CircuitName": "Sochi Autodrom", "Location": {"Locality": "Sochi", "Country": "Russia", "lat": "43.4057", "long": "39.9578"}, "circuitId": "sochi", "url": "http://en.wikipedia.org/wiki/Sochi_Autodrom"}, {"CircuitName": "Circuit de Spa-Francorchamps", "Location": {"Locality": "Spa", "Country": "Belgium", "lat": "50.4372", "long": "5.97139"}, "circuitId": "spa", "url": "http://en.wikipedia.org/wiki/Circuit_de_Spa-Francorchamps"}, {"CircuitName": "Suzuka Circuit", "Location": {"Locality": "Suzuka", "Country": "Japan", "lat": "34.8431", "long": "136.541"}, "circuitId": "suzuka", "url": "http://en.wikipedia.org/wiki/Suzuka_Circuit"}, {"CircuitName": "Circuit Mont-Tremblant", "Location": {"Locality": "Quebec", "Country": "Canada", "lat": "46.1877", "long": "-74.6099"}, "circuitId": "tremblant", "url": "http://en.wikipedia.org/wiki/Circuit_Mont-Tremblant"}, {"CircuitName": "Valencia Street Circuit", "Location": {"Locality": "Valencia", "Country": "Spain", "lat": "39.4589", "long": "-0.331667"}, "circuitId": "valencia", "url": "http://en.wikipedia.org/wiki/Valencia_Street_Circuit"}, {"CircuitName": "Las Vegas Strip Street Circuit", "Location": {"Locality": "Las Vegas", "Country": "United States", "lat": "36.1147", "long": "-115.173"}, "circuitId": "vegas", "url": "https://en.wikipedia.org/wiki/Las_Vegas_Grand_Prix#Circuit"}, {"CircuitName": "Circuit Gilles Villeneuve", "Location": {"Locality": "Montreal", "Country": "Canada", "lat": "45.5", "long": "-73.5228"}, "circuitId": "villeneuve", "url": "http://en.wikipedia.org/wiki/Circuit_Gilles_Villeneuve"}, {"CircuitName": "Watkins Glen", "Location": {"Locality": "New York State", "Country": "USA", "lat": "42.3369", "long": "-76.9272"}, "circuitId": "watkins_glen", "url": "http://en.wikipedia.org/wiki/Watkins_Glen_International"}, {"CircuitName": "Yas Marina Circuit", "Location": {"Locality": "Abu Dhabi", "Country": "UAE", "lat": "24.4672", "long": "54.6031"}, "circuitId": "yas_marina", "url": "http://en.wikipedia.org/wiki/Yas_Marina_Circuit"}, {"CircuitName": "Korean International Circuit", "Location": {"Locality": "Yeongam County", "Country": "Korea", "lat": "34.7333", "long": "126.417"}, "circuitId": "yeongam", "url": "http://en.wikipedia.org/wiki/Korean_International_Circuit"}, {"CircuitName": "Circuit Park Zandvoort", "Location": {"Locality": "Zandvoort", "Country": "Netherlands", "lat": "52.3888", "long": "4.54092"}, "circuitId": "zandvoort", "url": "http://en.wikipedia.org/wiki/Circuit_Zandvoort"}, {"CircuitName": "Zeltweg", "Location": {"Locality": "Styria", "Country": "Austria", "lat": "47.2039", "long": "14.7478"}, "circuitId": "zeltweg", "url": "http://en.wikipedia.org/wiki/Zeltweg_Airfield"}, {"CircuitName": "Zolder", "Location": {"Locality": "Heusden-Zolder", "Country": "Belgium", "lat": "50.9894", "long": "5.25694"}, "circuitId": "zolder", "url": "http://en.wikipedia.org/wiki/Zolder"},{"CircuitName": "Bahrain International Circuit", "Location": {"Locality": "Sakhir", "Country": "Bahrain", "lat": "26.0325", "long": "50.5106"}, "circuitId": "bahrain", "url": "http://en.wikipedia.org/wiki/Bahrain_International_Circuit"},{"CircuitName": "Circuit de Barcelona-Catalunya", "Location": {"Locality": "Montmel\u00f3", "Country": "Spain", "lat": "41.57", "long": "2.26111"}, "circuitId": "catalunya", "url": "http://en.wikipedia.org/wiki/Circuit_de_Barcelona-Catalunya"},{"CircuitName": "Baku City Circuit", "Location": {"Locality": "Baku", "Country": "Azerbaijan", "lat": "40.3725", "long": "49.8533"}, "circuitId": "baku", "url": "http://en.wikipedia.org/wiki/Baku_City_Circuit"},{"CircuitName": "Circuit of the Americas", "Location": {"Locality": "Austin", "Country": "USA", "lat": "30.1328", "long": "-97.6411"}, "circuitId": "americas", "url": "http://en.wikipedia.org/wiki/Circuit_of_the_Americas"},{"CircuitName": "Albert Park Circuit", "Location": {"Locality": "Melbourne", "Country": "Australia", "lat": "-37.8497", "long": "144.968"}, "circuitId": "albert_park", "url": "http://en.wikipedia.org/wiki/Melbourne_Grand_Prix_Circuit"},{"CircuitName": "Circuit Bremgarten", "Location": {"Locality": "Bern", "Country": "Switzerland", "lat": "46.9589", "long": "7.40194"}, "circuitId": "bremgarten", "url": "http://en.wikipedia.org/wiki/Circuit_Bremgarten"},{"CircuitName": "Rouen-Les-Essarts", "Location": {"Locality": "Rouen", "Country": "France", "lat": "49.3306", "long": "1.00458"}, "circuitId": "essarts", "url": "http://en.wikipedia.org/wiki/Rouen-Les-Essarts"},{"CircuitName": "Aintree", "Location": {"Locality": "Liverpool", "Country": "UK", "lat": "53.4769", "long": "-2.94056"}, "circuitId": "aintree", "url": "http://en.wikipedia.org/wiki/Aintree_Motor_Racing_Circuit"},{"CircuitName": "Circuito da Boavista", "Location": {"Locality": "Oporto", "Country": "Portugal", "lat": "41.1705", "long": "-8.67325"}, "circuitId": "boavista", "url": "http://en.wikipedia.org/wiki/Circuito_da_Boavista"},{"CircuitName": "Ain Diab", "Location": {"Locality": "Casablanca", "Country": "Morocco", "lat": "33.5786", "long": "-7.6875"}, "circuitId": "ain-diab", "url": "http://en.wikipedia.org/wiki/Ain-Diab_Circuit"},{"CircuitName": "AVUS", "Location": {"Locality": "Berlin", "Country": "Germany", "lat": "52.4806", "long": "13.2514"}, "circuitId": "avus", "url": "http://en.wikipedia.org/wiki/AVUS"},{"CircuitName": "Brands Hatch", "Location": {"Locality": "Kent", "Country": "UK", "lat": "51.3569", "long": "0.263056"}, "circuitId": "brands_hatch", "url": "http://en.wikipedia.org/wiki/Brands_Hatch"},{"CircuitName": "Charade Circuit", "Location": {"Locality": "Clermont-Ferrand", "Country": "France", "lat": "45.7472", "long": "3.03889"}, "circuitId": "charade", "url": "http://en.wikipedia.org/wiki/Charade_Circuit"},{"CircuitName": "Scandinavian Raceway", "Location": {"Locality": "Anderstorp", "Country": "Sweden", "lat": "57.2653", "long": "13.6042"}, "circuitId": "anderstorp", "url": "http://en.wikipedia.org/wiki/Scandinavian_Raceway"},{"CircuitName": "Dijon-Prenois", "Location": {"Locality": "Dijon", "Country": "France", "lat": "47.3625", "long": "4.89913"}, "circuitId": "dijon", "url": "http://en.wikipedia.org/wiki/Dijon-Prenois"},{"CircuitName": "Detroit Street Circuit", "Location": {"Locality": "Detroit", "Country": "USA", "lat": "42.3298", "long": "-83.0401"}, "circuitId": "detroit", "url": "http://en.wikipedia.org/wiki/Detroit_street_circuit"},{"CircuitName": "Fair Park", "Location": {"Locality": "Dallas", "Country": "USA", "lat": "32.7774", "long": "-96.7587"}, "circuitId": "dallas", "url": "http://en.wikipedia.org/wiki/Fair_Park"},{"CircuitName": "Adelaide Street Circuit", "Location": {"Locality": "Adelaide", "Country": "Australia", "lat": "-34.9272", "long": "138.617"}, "circuitId": "adelaide", "url": "http://en.wikipedia.org/wiki/Adelaide_Street_Circuit"},{"CircuitName": "Donington Park", "Location": {"Locality": "Castle Donington", "Country": "UK", "lat": "52.8306", "long": "-1.37528"}, "circuitId": "donington", "url": "http://en.wikipedia.org/wiki/Donington_Park"},{"CircuitName": "Buddh International Circuit", "Location": {"Locality": "Uttar Pradesh", "Country": "India", "lat": "28.3487", "long": "77.5331"}, "circuitId": "buddh", "url": "http://en.wikipedia.org/wiki/Buddh_International_Circuit"},{"CircuitName": "Las Vegas Strip Street Circuit", "Location": {"Locality": "Las Vegas", "Country": "United States", "lat": "36.1147", "long": "-115.173"}, "circuitId": "vegas", "url": "https://en.wikipedia.org/wiki/Las_Vegas_Grand_Prix#Circuit"}]}, "xmlns": "http://ergast.com/mrd/1.5", "series": "f1", "url": "http://ergast.com/api/f1/circuits", "limit": "100", "offset": "20", "total": "77"}}


